{"type":"FeatureCollection","features":[{"type":"Feature","geometry":{"type":"Point","coordinates":[3.757455737704916,-4.870977049180336]},"properties":{"id":"marker0","type":"volcano","icon":"üåã","name":"Mount Thaxted","legend":"Active volcano. Height: 2429 m","size":30}},{"type":"Feature","geometry":{"type":"Point","coordinates":[-7.588918032786886,4.331154098360646]},"properties":{"id":"marker1","type":"hot_springs","icon":"‚ô®","name":"Malmond Hot Springs","legend":"A hot springs area. Temperature: 32¬∞C","size":30}},{"type":"Feature","geometry":{"type":"Point","coordinates":[-12.042944262295084,4.94657704918032]},"properties":{"id":"marker2","type":"mine","icon":"‚öí","name":"Kokovoga ‚Äî silver mining town","legend":"Kokovoga is a mining town of 13835 people just nearby the silver mine","size":30}},{"type":"Feature","geometry":{"type":"Point","coordinates":[-11.955954098360657,6.227409836065567]},"properties":{"id":"marker3","type":"mine","icon":"‚öí","name":"Horod ‚Äî iron mining town","legend":"Horod is a mining town of 1688 people just nearby the iron mine","size":30}},{"type":"Feature","geometry":{"type":"Point","coordinates":[5.370668852459012,-3.5369114754098447]},"properties":{"id":"marker4","type":"mine","icon":"‚öí","name":"Amlios ‚Äî iron mining town","legend":"Amlios is a mining town of 14134 people just nearby the iron mine","size":30}},{"type":"Feature","geometry":{"type":"Point","coordinates":[22.477868852459018,0.8814098360655649]},"properties":{"id":"marker5","type":"mine","icon":"‚öí","name":"Aesemria ‚Äî silver mining town","legend":"Aesemria is a mining town of 4043 people just nearby the silver mine","size":30}},{"type":"Feature","geometry":{"type":"Point","coordinates":[12.938813114754097,10.239993442622945]},"properties":{"id":"marker6","type":"mine","icon":"‚öí","name":"Furlin ‚Äî salt mining town","legend":"Furlin is a mining town of 12035 people just nearby the salt mine","size":30}},{"type":"Feature","geometry":{"type":"Point","coordinates":[-5.717980327868858,-7.406026229508203]},"properties":{"id":"marker7","type":"mine","icon":"‚öí","name":"Yuaulihuatli ‚Äî gold mining town","legend":"Yuaulihuatli is a mining town of 9448 people just nearby the gold mine","size":30}},{"type":"Feature","geometry":{"type":"Point","coordinates":[21.507993442622954,7.225199999999992]},"properties":{"id":"marker8","type":"mine","icon":"‚öí","name":"Kustet ‚Äî salt mining town","legend":"Kustet is a mining town of 4263 people just nearby the salt mine","size":30}},{"type":"Feature","geometry":{"type":"Point","coordinates":[16.831298360655737,6.471501639344256]},"properties":{"id":"marker9","type":"mine","icon":"‚öí","name":"Siklad ‚Äî gold mining town","legend":"Siklad is a mining town of 21166 people just nearby the gold mine","size":30}},{"type":"Feature","geometry":{"type":"Point","coordinates":[20.574472131147537,0.2809180327868752]},"properties":{"id":"marker10","type":"mine","icon":"‚öí","name":"Susali ‚Äî gold mining town","legend":"Susali is a mining town of 1757 people just nearby the gold mine","size":30}},{"type":"Feature","geometry":{"type":"Point","coordinates":[14.038524590163938,-1.986668852459026]},"properties":{"id":"marker11","type":"bridge","icon":"üåâ","name":"Teostos Bridge","legend":"A stone bridge over the Teostos River near Hatalia","size":30}},{"type":"Feature","geometry":{"type":"Point","coordinates":[21.384,13.60859016393442]},"properties":{"id":"marker12","type":"bridge","icon":"üåâ","name":"Baberg Bridge","legend":"A stone bridge over the Birtaltadt River near Baberg","size":30}},{"type":"Feature","geometry":{"type":"Point","coordinates":[5.083731147540973,-6.775022950819679]},"properties":{"id":"marker13","type":"inn","icon":"üçª","name":"The White Boar","legend":"A big and famous roadside inn","size":30}},{"type":"Feature","geometry":{"type":"Point","coordinates":[-30.57639344262295,12.440065573770486]},"properties":{"id":"marker14","type":"lighthouse","icon":"üö®","name":"Kozcean Lighthouse","legend":"A lighthouse to keep the navigation safe","size":30}},{"type":"Feature","geometry":{"type":"Point","coordinates":[26.551475409836065,-8.333704918032797]},"properties":{"id":"marker15","type":"lighthouse","icon":"üö®","name":"Bostingian Lighthouse","legend":"A lighthouse to keep the navigation safe","size":30}},{"type":"Feature","geometry":{"type":"Point","coordinates":[15.385573770491803,-10.281245901639352]},"properties":{"id":"marker16","type":"lighthouse","icon":"üö®","name":"Reykvikian Lighthouse","legend":"A lighthouse to keep the navigation safe","size":30}},{"type":"Feature","geometry":{"type":"Point","coordinates":[2.5915278688524523,-6.723737704918037]},"properties":{"id":"marker17","type":"waterfall","icon":"‚ü±","name":"Tuclan Waterfall","legend":"An extremely beautiful waterfall","size":30}},{"type":"Feature","geometry":{"type":"Point","coordinates":[16.6923737704918,-1.434865573770498]},"properties":{"id":"marker18","type":"battlefield","icon":"‚öî","name":"Phatos Battlefield","legend":"A historical battle of the Chalbian Campaign. \r\nDate: June 12, 1904 Leigh Era","size":30}},{"type":"Feature","geometry":{"type":"Point","coordinates":[0.7855081967213167,9.039659016393436]},"properties":{"id":"marker19","type":"battlefield","icon":"‚öî","name":"Chiple Battlefield","legend":"A historical battle of the Mifuengan War. \r\nDate: June 19, 1970 Leigh Era","size":30}},{"type":"Feature","geometry":{"type":"Point","coordinates":[-7.801849180327864,9.281154098360648]},"properties":{"id":"marker20","type":"battlefield","icon":"‚öî","name":"Winhetham Battlefield","legend":"A historical battle of the Mifuengan War. \r\nDate: January 9, 1970 Leigh Era","size":30}},{"type":"Feature","geometry":{"type":"Point","coordinates":[0.9620852459016405,11.160531147540977]},"properties":{"id":"marker21","type":"battlefield","icon":"‚öî","name":"Towceslerid Battlefield","legend":"A historical battle of the Hatalian Rebellion. \r\nDate: October 23, 108 Leigh Era","size":30}}]}